    [
        {
            "id": "/subscriptions/71578c6b-75ba-4865-8f52-3e66d70389fd/locations/eastasia",
            "name": "eastasia"
        },
        {
            "id": "/subscriptions/71578c6b-75ba-4865-8f52-3e66d70389fd/locations/southeastasia",
            "name": "southeastasia",
            "displayName": "Southeast Asia",
            "longitude": "103.833",
            "latitude": "1.283"
        },
        {
            "id": "/subscriptions/71578c6b-75ba-4865-8f52-3e66d70389fd/locations/centralus",
            "name": "centralus",
            "displayName": "Central US",
            "longitude": "-93.6208",
            "latitude": "41.5908"
        },
        {
            "id": "/subscriptions/71578c6b-75ba-4865-8f52-3e66d70389fd/locations/eastus",
            "name": "eastus",
            "displayName": "East US",
            "longitude": "-79.8164",
            "latitude": "37.3719"
        },
        {
            "id": "/subscriptions/71578c6b-75ba-4865-8f52-3e66d70389fd/locations/eastus2",
            "name": "eastus2",
            "displayName": "East US 2",
            "longitude": "-78.3889",
            "latitude": "36.6681"
        },
        {
            "id": "/subscriptions/71578c6b-75ba-4865-8f52-3e66d70389fd/locations/westus",
            "name": "westus",
            "displayName": "West US",
            "longitude": "-122.417",
            "latitude": "37.783"
        },
        {
            "id": "/subscriptions/71578c6b-75ba-4865-8f52-3e66d70389fd/locations/northcentralus",
            "name": "northcentralus",
            "displayName": "North Central US",
            "longitude": "-87.6278",
            "latitude": "41.8819"
        },
        {
            "id": "/subscriptions/71578c6b-75ba-4865-8f52-3e66d70389fd/locations/southcentralus",
            "name": "southcentralus",
            "displayName": "South Central US",
            "longitude": "-98.5",
            "latitude": "29.4167"
        },
        {
            "id": "/subscriptions/71578c6b-75ba-4865-8f52-3e66d70389fd/locations/northeurope",
            "name": "northeurope",
            "displayName": "North Europe",
            "longitude": "-6.2597",
            "latitude": "53.3478"
        },
        {
            "id": "/subscriptions/71578c6b-75ba-4865-8f52-3e66d70389fd/locations/westeurope",
            "name": "westeurope",
            "displayName": "West Europe",
            "longitude": "4.9",
            "latitude": "52.3667"
        },
        {
            "id": "/subscriptions/71578c6b-75ba-4865-8f52-3e66d70389fd/locations/japanwest",
            "name": "japanwest",
            "displayName": "Japan West",
            "longitude": "135.5022",
            "latitude": "34.6939"
        },
        {
            "id": "/subscriptions/71578c6b-75ba-4865-8f52-3e66d70389fd/locations/japaneast",
            "name": "japaneast",
            "displayName": "Japan East",
            "longitude": "139.77",
            "latitude": "35.68"
        },
        {
            "id": "/subscriptions/71578c6b-75ba-4865-8f52-3e66d70389fd/locations/brazilsouth",
            "name": "brazilsouth",
            "displayName": "Brazil South",
            "longitude": "-46.633",
            "latitude": "-23.55"
        },
        {
            "id": "/subscriptions/71578c6b-75ba-4865-8f52-3e66d70389fd/locations/australiaeast",
            "name": "australiaeast",
            "displayName": "Australia East",
            "longitude": "151.2094",
            "latitude": "-33.86"
        },
        {
            "id": "/subscriptions/71578c6b-75ba-4865-8f52-3e66d70389fd/locations/australiasoutheast",
            "name": "australiasoutheast",
            "displayName": "Australia Southeast",
            "longitude": "144.9631",
            "latitude": "-37.8136"
        },
        {
            "id": "/subscriptions/71578c6b-75ba-4865-8f52-3e66d70389fd/locations/southindia",
            "name": "southindia",
            "displayName": "South India",
            "longitude": "80.1636",
            "latitude": "12.9822"
        },
        {
            "id": "/subscriptions/71578c6b-75ba-4865-8f52-3e66d70389fd/locations/centralindia",
            "name": "centralindia",
            "displayName": "Central India",
            "longitude": "73.9197",
            "latitude": "18.5822"
        },
        {
            "id": "/subscriptions/71578c6b-75ba-4865-8f52-3e66d70389fd/locations/westindia",
            "name": "westindia",
            "displayName": "West India",
            "longitude": "72.868",
            "latitude": "19.088"
        },
        {
            "id": "/subscriptions/71578c6b-75ba-4865-8f52-3e66d70389fd/locations/canadacentral",
            "name": "canadacentral",
            "displayName": "Canada Central",
            "longitude": "-79.383",
            "latitude": "43.653"
        },
        {
            "id": "/subscriptions/71578c6b-75ba-4865-8f52-3e66d70389fd/locations/canadaeast",
            "name": "canadaeast",
            "displayName": "Canada East",
            "longitude": "-71.217",
            "latitude": "46.817"
        },
        {
            "id": "/subscriptions/71578c6b-75ba-4865-8f52-3e66d70389fd/locations/uksouth",
            "name": "uksouth",
            "displayName": "UK South",
            "longitude": "-0.799",
            "latitude": "50.941"
        },
        {
            "id": "/subscriptions/71578c6b-75ba-4865-8f52-3e66d70389fd/locations/ukwest",
            "name": "ukwest",
            "displayName": "UK West",
            "longitude": "-3.084",
            "latitude": "53.427"
        },
        {
            "id": "/subscriptions/71578c6b-75ba-4865-8f52-3e66d70389fd/locations/westcentralus",
            "name": "westcentralus",
            "displayName": "West Central US",
            "longitude": "-110.234",
            "latitude": "40.890"
        },
        {
            "id": "/subscriptions/71578c6b-75ba-4865-8f52-3e66d70389fd/locations/westus2",
            "name": "westus2",
            "displayName": "West US 2",
            "longitude": "-119.852",
            "latitude": "47.233"
        },
        {
            "id": "/subscriptions/71578c6b-75ba-4865-8f52-3e66d70389fd/locations/koreacentral",
            "name": "koreacentral",
            "displayName": "Korea Central",
            "longitude": "126.9780",
            "latitude": "37.5665"
        },
        {
            "id": "/subscriptions/71578c6b-75ba-4865-8f52-3e66d70389fd/locations/koreasouth",
            "name": "koreasouth",
            "displayName": "Korea South",
            "longitude": "129.0756",
            "latitude": "35.1796"
        },
        {
            "id": "/subscriptions/71578c6b-75ba-4865-8f52-3e66d70389fd/locations/francecentral",
            "name": "francecentral",
            "displayName": "France Central",
            "longitude": "2.3730",
            "latitude": "46.3772"
        },
        {
            "id": "/subscriptions/71578c6b-75ba-4865-8f52-3e66d70389fd/locations/francesouth",
            "name": "francesouth",
            "displayName": "France South",
            "longitude": "2.1972",
            "latitude": "43.8345"
        },
        {
            "id": "/subscriptions/71578c6b-75ba-4865-8f52-3e66d70389fd/locations/australiacentral",
            "name": "australiacentral",
            "displayName": "Australia Central",
            "longitude": "149.1244",
            "latitude": "-35.3075"
        },
        {
            "id": "/subscriptions/71578c6b-75ba-4865-8f52-3e66d70389fd/locations/australiacentral2",
            "name": "australiacentral2",
            "displayName": "Australia Central 2",
            "longitude": "149.1244",
            "latitude": "-35.3075"
        }
    ]